{
  "lahore|pakistan": {
    "lat": 31.5497,
    "lon": 74.3436,
    "display_name": "Lahore, Punjab, Pakistan"
  },
  "d.g khan|pakistan": {
    "lat": 30.0561,
    "lon": 70.6346,
    "display_name": "Dera Ghazi Khan, Punjab, Pakistan"
  },
  "r. y khan|pakistan": {
    "lat": 28.4202,
    "lon": 70.2952,
    "display_name": "Rahim Yar Khan, Punjab, Pakistan"
  },
  "karachi|pakistan": {
    "lat": 24.8607,
    "lon": 67.0011,
    "display_name": "Karachi, Sindh, Pakistan"
  },
  "peshawar|pakistan": {
    "lat": 34.0151,
    "lon": 71.5249,
    "display_name": "Peshawar, Khyber Pakhtunkhwa, Pakistan"
  },
  "quetta|pakistan": {
    "lat": 30.1798,
    "lon": 66.975,
    "display_name": "Quetta, Balochistan, Pakistan"
  },
  "islamabad|pakistan": {
    "lat": 33.6844,
    "lon": 73.0479,
    "display_name": "Islamabad, Pakistan"
  },
  "dera ghazi khan|pakistan": {
    "lat": 30.0321374,
    "lon": 70.6401114,
    "display_name": "\u0688\u06cc\u0631\u06c1 \u063a\u0627\u0632\u06cc \u062e\u0627\u0646, \u062a\u062d\u0635\u0650\u064a\u0644 \u0688\u064a\u0631\u0647 \u063a\u0627\u0632\u0649 \u062e\u0627\u0646, \u0636\u0644\u0639 \u0688\u064a\u0631\u0647 \u063a\u0627\u0632\u0649 \u062e\u0627\u0646, \u0688\u06cc\u0631\u06c1 \u063a\u0627\u0632\u06cc \u062e\u0627\u0646 \u0688\u0648\u06cc\u0698\u0646, \u067e\u0646\u062c\u0627\u0628, \u067e\u0627\u06a9\u0633\u062a\u0627\u0646"
  },
  "rahim yar khan|pakistan": {
    "lat": 28.4225413,
    "lon": 70.3034237,
    "display_name": "\u0631\u062d\u06cc\u0645 \u06cc\u0627\u0631 \u062e\u0627\u0646 \u0631\u06cc\u0644\u0648\u06d2 \u0627\u0633\u0679\u06cc\u0634\u0646, Railway Service Road, \u0631\u062d\u06cc\u0645 \u06cc\u0627\u0631 \u062e\u0627\u0646, \u062a\u062d\u0635\u06cc\u0644 \u0631\u062d\u06cc\u0645 \u06cc\u0627\u0631 \u062e\u0627\u0646, \u0636\u0644\u0639 \u0631\u062d\u06cc\u0645 \u06cc\u0627\u0631 \u062e\u0627\u0646, \u0628\u06c1\u0627\u0648\u0644\u067e\u0648\u0631 \u0688\u0648\u06cc\u0698\u0646, \u067e\u0646\u062c\u0627\u0628, 64200, \u067e\u0627\u06a9\u0633\u062a\u0627\u0646"
  }
}